City,Lat,Lng,Max Temp,Humidity,Cloudiness,Wind Speed,Country,Date
cape town,-33.9258,18.4232,48.11,82.0,0.0,3.44,ZA,1627093921
busselton,-33.65,115.3333,59.04,72.0,100.0,14.14,AU,1627093921
mar del plata,-38.0023,-57.5575,51.13,64.0,0.0,21.0,AR,1627093655
bluff,-46.6,168.3333,56.8,67.0,56.0,5.93,NZ,1627093922
bethel,41.3712,-73.414,70.68,82.0,1.0,0.0,US,1627093922
dikson,73.5069,80.5464,43.9,78.0,100.0,27.36,RU,1627093922
port-cartier,50.0334,-66.8654,62.74,84.0,67.0,3.13,CA,1627093627
sao joao da barra,-21.6403,-41.0511,67.46,70.0,0.0,7.99,BR,1627093191
rikitea,-23.1203,-134.9692,70.21,56.0,8.0,9.4,PF,1627093923
barrow,71.2906,-156.7887,37.42,87.0,90.0,14.97,US,1627093921
cogealac,44.55,28.5667,61.05,62.0,0.0,6.33,RO,1627093923
porto novo,6.4965,2.6036,78.62,80.0,41.0,6.67,BJ,1627093924
avarua,-21.2078,-159.775,77.05,69.0,0.0,12.66,CK,1627093924
atuona,-9.8,-139.0333,77.43,77.0,41.0,10.78,PF,1627093925
hemnesberget,66.2333,13.6333,51.58,94.0,100.0,5.23,NO,1627093925
ribeira grande,38.5167,-28.7,70.92,95.0,84.0,7.72,PT,1627093925
nikolskoye,59.7035,30.7861,53.78,71.0,94.0,3.47,RU,1627093926
new norfolk,-42.7826,147.0587,53.89,70.0,95.0,4.0,AU,1627093926
whitehorse,60.7161,-135.0538,68.02,39.0,75.0,11.99,CA,1627093407
port alfred,-33.5906,26.891,50.11,68.0,41.0,6.33,ZA,1627093927
hasaki,35.7333,140.8333,91.29,71.0,8.0,10.4,JP,1627093927
seoul,37.5683,126.9778,93.61,49.0,0.0,3.44,KR,1627093812
lompoc,34.6391,-120.4579,74.57,81.0,90.0,10.36,US,1627093927
zeya,53.75,127.2667,69.93,98.0,100.0,4.88,RU,1627093928
manokwari,-0.8667,134.0833,76.51,88.0,100.0,3.96,ID,1627093928
kapaa,22.0752,-159.319,84.18,86.0,90.0,3.0,US,1627093721
japura,-0.3167,102.35,85.69,63.0,92.0,4.14,ID,1627093928
masterton,-40.9597,175.6575,56.97,68.0,1.0,4.21,NZ,1627093929
east london,-33.0153,27.9116,52.29,61.0,88.0,3.67,ZA,1627093929
filadelfia,39.9523,-75.1638,74.1,71.0,1.0,2.93,US,1627093855
thompson,55.7435,-97.8558,62.76,77.0,75.0,12.66,CA,1627093813
port hedland,-20.3167,118.5667,78.85,24.0,2.0,17.27,AU,1627093930
port blair,11.6667,92.75,82.69,82.0,100.0,21.09,IN,1627093930
hilo,19.7297,-155.09,87.28,86.0,90.0,11.5,US,1627093797
tuatapere,-46.1333,167.6833,56.82,67.0,81.0,4.38,NZ,1627093931
saldanha,-33.0117,17.9442,41.05,60.0,0.0,9.86,ZA,1627093930
punta arenas,-53.15,-70.9167,39.31,81.0,0.0,31.07,CL,1627093709
tomatlan,19.9333,-105.25,79.66,91.0,86.0,3.98,MX,1627093859
upernavik,72.7868,-56.1549,38.55,97.0,100.0,11.88,GL,1627093931
kita,13.0349,-9.4895,74.57,87.0,73.0,2.66,ML,1627093931
iqaluit,63.7506,-68.5145,49.73,71.0,75.0,8.01,CA,1627093813
ushuaia,-54.8,-68.3,37.06,75.0,90.0,9.22,AR,1627093806
carutapera,-1.195,-46.02,74.71,91.0,7.0,5.86,BR,1627093932
hobart,-42.8794,147.3294,54.23,70.0,75.0,1.99,AU,1627093870
matam,15.6175,-13.3303,84.43,39.0,99.0,11.97,SN,1627093932
yellowknife,62.456,-114.3525,65.32,100.0,75.0,3.44,CA,1627093842
torbay,47.6666,-52.7314,57.76,97.0,90.0,0.0,CA,1627093934
nioro,13.35,-15.75,73.08,81.0,77.0,4.43,GM,1627093934
qaanaaq,77.484,-69.3632,38.95,77.0,87.0,1.07,GL,1627093935
cherskiy,68.75,161.3,53.15,57.0,93.0,11.05,RU,1627093935
aykhal,66.0,111.5,65.19,61.0,91.0,15.99,RU,1627093935
aklavik,68.2191,-135.0107,67.03,30.0,38.0,5.48,CA,1627093936
mataura,-46.1927,168.8643,56.48,72.0,18.0,4.52,NZ,1627093921
tasiilaq,65.6145,-37.6368,41.16,99.0,100.0,1.88,GL,1627093936
bengkulu,-3.8004,102.2655,83.39,66.0,96.0,1.21,ID,1627093936
camapua,-19.5314,-54.0439,68.77,34.0,0.0,6.22,BR,1627093937
eureka,40.8021,-124.1637,63.19,74.0,1.0,4.0,US,1627093937
turje,46.9837,17.1074,66.49,71.0,0.0,2.46,HU,1627093937
djambala,-2.5447,14.7533,65.46,75.0,98.0,3.85,CG,1627093861
omboue,-1.5746,9.2618,72.59,81.0,100.0,4.52,GA,1627093938
jamestown,42.097,-79.2353,67.32,69.0,1.0,0.0,US,1627093938
paamiut,61.994,-49.6678,42.6,91.0,100.0,13.22,GL,1627093939
waddan,29.1614,16.139,73.26,57.0,0.0,1.36,LY,1627093939
hermanus,-34.4187,19.2345,47.89,62.0,0.0,9.98,ZA,1627093939
hithadhoo,-0.6,73.0833,81.07,74.0,81.0,1.77,MV,1627093940
butaritari,3.0707,172.7902,83.59,76.0,11.0,17.18,KI,1627093926
anori,-3.7728,-61.6442,73.27,94.0,36.0,1.23,BR,1627093864
mount gambier,-37.8333,140.7667,49.91,81.0,40.0,14.97,AU,1627093940
ahuacatlan,21.05,-104.4833,70.95,88.0,99.0,1.79,MX,1627093941
laguna,38.421,-121.4238,102.31,22.0,1.0,4.0,US,1627093195
saskylakh,71.9167,114.0833,56.95,69.0,96.0,15.41,RU,1627093941
bonavista,48.6499,-53.1147,55.11,97.0,100.0,9.35,CA,1627093396
rocha,-34.4833,-54.3333,58.21,87.0,41.0,4.47,UY,1627093941
shelburne,44.0787,-80.2041,67.89,79.0,98.0,2.91,CA,1627093682
bourail,-21.5667,165.4833,79.63,57.0,0.0,7.05,NC,1627093942
sao filipe,14.8961,-24.4956,73.71,75.0,16.0,9.89,CV,1627093942
zhengjiatun,43.5064,123.5064,89.51,46.0,6.0,19.55,CN,1627093943
mgandu,-5.95,34.1333,57.43,59.0,3.0,10.83,TZ,1627093943
clyde river,70.4692,-68.5914,35.83,87.0,40.0,11.5,CA,1627093943
black river,18.0264,-77.8487,84.2,79.0,46.0,2.46,JM,1627093943
bandarbeyla,9.4942,50.8122,78.6,63.0,43.0,31.07,SO,1627093944
geraldton,-28.7667,114.6,61.21,88.0,75.0,9.22,AU,1627093867
yatou,37.15,122.3833,85.95,57.0,0.0,6.24,CN,1627093944
bambanglipuro,-7.95,110.2833,81.12,64.0,15.0,12.73,ID,1627093435
kaitangata,-46.2817,169.8464,53.92,54.0,15.0,6.53,NZ,1627093945
banjar,-8.19,114.9675,82.26,49.0,5.0,0.74,ID,1627093945
port lincoln,-34.7333,135.8667,54.55,71.0,88.0,32.66,AU,1627093945
talnakh,69.4865,88.3972,66.81,79.0,100.0,21.61,RU,1627093946
hervey bay,-25.2986,152.8535,77.11,58.0,23.0,10.25,AU,1627093946
lukovetskiy,64.2956,41.9211,46.38,77.0,100.0,6.15,RU,1627093946
norman wells,65.282,-126.8329,60.84,72.0,90.0,6.91,CA,1627093947
bassar,9.25,0.7833,72.1,79.0,99.0,4.07,TG,1627093947
nemuro,43.3236,145.575,81.03,90.0,77.0,13.22,JP,1627093945
leningradskiy,69.3833,178.4167,38.77,83.0,99.0,5.37,RU,1627093948
ancud,-41.8697,-73.8203,36.93,81.0,0.0,7.61,CL,1627093949
sitka,57.0531,-135.33,57.09,88.0,90.0,9.22,US,1627093949
fortuna,40.5982,-124.1573,62.92,74.0,1.0,1.99,US,1627093949
cidreira,-30.1811,-50.2056,59.85,81.0,0.0,5.68,BR,1627093950
tiksi,71.6872,128.8694,46.44,80.0,52.0,9.1,RU,1627093153
puerto ayora,-0.7393,-90.3518,72.55,87.0,60.0,5.01,EC,1627093950
soc trang,9.6033,105.98,82.36,65.0,100.0,13.85,VN,1627093950
fort nelson,58.8053,-122.7002,69.39,43.0,75.0,5.75,CA,1627093812
albany,42.6001,-73.9662,64.63,86.0,0.0,4.12,US,1627093769
palma di montechiaro,37.1926,13.765,79.16,58.0,0.0,1.72,IT,1627093951
sur,22.5667,59.5289,89.6,60.0,86.0,11.65,OM,1627093951
bredasdorp,-34.5322,20.0403,46.27,87.0,0.0,4.61,ZA,1627093952
vaini,-21.2,-175.2,82.56,83.0,20.0,6.91,TO,1627093952
kamenka,51.3223,42.7678,61.36,66.0,1.0,5.37,RU,1627093952
lorengau,-2.0226,147.2712,83.12,80.0,92.0,9.55,PG,1627093953
port elizabeth,-33.918,25.5701,41.29,87.0,0.0,0.0,ZA,1627093951
georgetown,5.4112,100.3354,88.9,76.0,20.0,3.44,MY,1627093799
haines junction,60.7522,-137.5108,66.15,42.0,31.0,11.5,CA,1627093954
biltine,14.5333,20.9167,79.07,68.0,100.0,1.07,TD,1627093954
puerto ayacucho,5.6639,-67.6236,74.26,94.0,98.0,2.44,VE,1627093954
kutum,14.2,24.6667,72.12,75.0,100.0,13.2,SD,1627093948
labuhan,-6.8844,112.2051,84.54,59.0,8.0,3.89,ID,1627093955
tamiahua,21.2667,-97.45,78.66,91.0,7.0,6.4,MX,1627093955
el ocotito,17.25,-99.5667,76.33,95.0,35.0,3.36,MX,1627093955
mahebourg,-20.4081,57.7,68.25,94.0,75.0,5.75,MU,1627093140
luwuk,-0.9516,122.7875,83.55,64.0,90.0,8.08,ID,1627093956
simplicio mendes,-7.8539,-41.9103,73.56,59.0,0.0,12.95,BR,1627093956
anajatuba,-3.2644,-44.6197,71.35,92.0,4.0,3.31,BR,1627093956
portland,45.5234,-122.6762,85.89,41.0,20.0,3.0,US,1627093404
bathsheba,13.2167,-59.5167,81.21,83.0,40.0,14.97,BB,1627093957
kandi,11.1342,2.9386,71.83,95.0,100.0,6.08,BJ,1627093957
severo-kurilsk,50.6789,156.125,57.9,90.0,84.0,5.48,RU,1627093934
victoria,22.2855,114.1577,91.96,82.0,4.0,1.99,HK,1627093867
borisoglebsk,51.3671,42.0849,61.54,68.0,4.0,4.65,RU,1627093958
meylan,45.2199,5.7901,72.3,57.0,100.0,2.62,FR,1627093958
bayir,37.2687,28.2167,70.32,56.0,0.0,4.85,TR,1627093958
klaksvik,62.2266,-6.589,50.92,93.0,11.0,16.35,FO,1627093959
olavarria,-36.8927,-60.3225,46.62,65.0,100.0,14.2,AR,1627093868
tuktoyaktuk,69.4541,-133.0374,59.0,47.0,75.0,14.97,CA,1627093928
grand gaube,-20.0064,57.6608,67.37,77.0,32.0,3.0,MU,1627093959
moulins,46.5,3.3333,67.51,99.0,100.0,2.84,FR,1627093960
inta,66.0317,60.1659,63.39,44.0,90.0,9.6,RU,1627093960
kulhudhuffushi,6.6221,73.07,81.66,78.0,99.0,12.33,MV,1627093960
newport,51.5877,-2.9984,63.86,87.0,100.0,16.82,GB,1627093933
lavrentiya,65.5833,-171.0,53.53,69.0,6.0,9.28,RU,1627093959
chernyshevskiy,63.0128,112.4714,75.7,42.0,24.0,7.54,RU,1627093892
bambous virieux,-20.3428,57.7575,67.21,94.0,75.0,5.75,MU,1627093962
silver city,32.7701,-108.2803,73.36,53.0,1.0,13.8,US,1627093962
carnarvon,-24.8667,113.6333,64.47,51.0,77.0,16.11,AU,1627093963
arraial do cabo,-22.9661,-42.0278,68.76,71.0,0.0,19.53,BR,1627093963
roma,43.2128,-75.4557,64.44,89.0,0.0,1.86,US,1627093963
lebu,-37.6167,-73.65,48.78,82.0,100.0,8.55,CL,1627093947
high level,58.5169,-117.136,64.51,82.0,75.0,4.61,CA,1627093964
ponta do sol,32.6667,-17.1,72.23,77.0,1.0,6.24,PT,1627093964
honningsvag,70.9821,25.9704,45.66,87.0,100.0,30.24,NO,1627093965
guerrero negro,27.9769,-114.0611,70.7,81.0,69.0,14.83,MX,1627093965
muros,42.7762,-9.0603,65.23,89.0,23.0,4.5,ES,1627093965
pisco,-13.7,-76.2167,62.65,77.0,90.0,14.97,PE,1627093966
fereydunshahr,32.941,50.121,69.91,29.0,0.0,1.95,IR,1627093966
hovd,48.0056,91.6419,77.0,36.0,1.0,0.81,MN,1627093941
iquitos,-3.7481,-73.2472,77.04,88.0,75.0,0.0,PE,1627093966
los algarrobos,8.5,-82.4333,81.45,86.0,100.0,1.52,PA,1627093967
kibungo,-2.1597,30.5427,61.72,49.0,59.0,3.62,RW,1627093967
saint-pierre,-21.3393,55.4781,65.88,61.0,0.0,9.22,RE,1627093967
hudson bay,52.85,-102.3842,71.6,37.0,52.0,12.03,CA,1627093968
darnah,32.767,22.6367,76.73,74.0,0.0,17.49,LY,1627093968
vao,-22.6667,167.4833,71.15,80.0,0.0,7.07,NC,1627093968
chokurdakh,70.6333,147.9167,48.78,57.0,98.0,14.43,RU,1627093966
amroha,28.9167,78.4667,89.94,62.0,39.0,3.89,IN,1627093969
matamoros,25.5333,-103.25,89.71,35.0,75.0,4.61,MX,1627093969
pevek,69.7008,170.3133,39.6,94.0,94.0,4.81,RU,1627093942
huarmey,-10.0681,-78.1522,63.45,86.0,37.0,8.88,PE,1627093970
chuy,-33.6971,-53.4616,58.3,91.0,9.0,4.97,UY,1627093970
faanui,-16.4833,-151.75,78.13,67.0,26.0,12.35,PF,1627093970
richards bay,-28.783,32.0377,56.05,57.0,100.0,14.45,ZA,1627093693
castro,-24.7911,-50.0119,50.61,80.0,0.0,3.67,BR,1627093701
salalah,17.0151,54.0924,77.09,100.0,90.0,10.36,OM,1627093971
khatanga,71.9667,102.5,58.77,52.0,99.0,5.97,RU,1627093971
tupa,-21.9347,-50.5136,69.4,38.0,0.0,7.4,BR,1627093971
srednekolymsk,67.45,153.6833,67.28,38.0,60.0,6.2,RU,1627093972
ponte nova,-20.4164,-42.9086,55.58,80.0,0.0,1.52,BR,1627093972
shirokiy,49.758,129.523,86.52,58.0,34.0,10.94,RU,1627093972
kangaatsiaq,68.3065,-53.4641,38.82,97.0,100.0,3.15,GL,1627093973
zhangzhou,24.5133,117.6556,91.33,55.0,51.0,3.62,CN,1627093807
suna,57.8338,50.0588,55.51,89.0,80.0,10.78,RU,1627093973
kahului,20.8947,-156.47,84.22,72.0,40.0,26.46,US,1627093974
saravan,39.7196,45.6483,68.65,75.0,35.0,6.55,AM,1627093974
sayyan,15.1718,44.3244,57.85,81.0,100.0,12.93,YE,1627093974
kyshtovka,56.555,76.6271,74.26,66.0,37.0,5.44,RU,1627093975
pangoa,-12.1167,-73.0,66.65,82.0,0.0,3.11,PE,1627093975
alghero,40.5589,8.3181,66.29,82.0,46.0,3.44,IT,1627093975
kaeo,-35.1,173.7833,58.5,69.0,9.0,6.38,NZ,1627093975
tashtyp,52.7939,89.8983,67.84,89.0,100.0,1.95,RU,1627093783
hofn,64.2539,-15.2082,53.4,99.0,100.0,5.79,IS,1627093974
shingu,33.7333,135.9833,85.19,67.0,100.0,6.93,JP,1627093977
birjand,32.8663,59.2211,72.07,18.0,0.0,0.0,IR,1627093977
airai,-8.9266,125.4092,77.32,20.0,57.0,4.83,TL,1627093929
ocho rios,18.4025,-77.1048,85.75,82.0,21.0,3.74,JM,1627093978
narsaq,60.9167,-46.05,46.62,75.0,52.0,1.68,GL,1627093978
longyearbyen,78.2186,15.6401,42.19,85.0,74.0,3.96,SJ,1627093978
hamilton,39.1834,-84.5333,76.05,75.0,1.0,0.0,US,1627093848
coihaique,-45.5752,-72.0662,37.35,81.0,20.0,8.05,CL,1627093979
liepaja,56.5419,21.0367,51.85,93.0,82.0,2.3,LV,1627093979
pontes e lacerda,-15.2261,-59.3353,71.46,46.0,0.0,2.37,BR,1627093980
najran,17.4924,44.1277,72.25,54.0,100.0,3.13,SA,1627093412
novobirilyussy,56.9514,90.6661,76.96,44.0,0.0,12.44,RU,1627093980
pochutla,15.7432,-96.4661,83.25,86.0,97.0,5.14,MX,1627093882
jasper,37.2001,-94.3502,80.65,78.0,1.0,4.61,US,1627093980
correntina,-13.3433,-44.6367,64.06,52.0,19.0,4.83,BR,1627093981
manta,-0.95,-80.7333,73.18,83.0,90.0,6.91,EC,1627093872
esperance,-33.8667,121.9,55.24,75.0,93.0,21.07,AU,1627093981
jaque,7.5175,-78.1703,79.07,87.0,100.0,4.7,PA,1627093982
deputatskiy,69.3,139.9,63.39,48.0,89.0,10.47,RU,1627093982
luderitz,-26.6481,15.1594,62.37,24.0,13.0,21.45,NA,1627093982
college,64.8569,-147.8028,74.86,72.0,75.0,6.91,US,1627093983
arlit,18.7369,7.3853,83.88,52.0,87.0,17.16,NE,1627093983
port keats,-14.25,129.55,89.96,28.0,38.0,8.68,AU,1627093983
adlay,9.4097,125.8975,91.31,48.0,23.0,2.44,PH,1627093984
radviliskis,55.8167,23.5333,51.85,87.0,40.0,5.75,LT,1627093766
maragogi,-9.0122,-35.2225,74.01,78.0,26.0,11.7,BR,1627093896
kushmurun,52.4503,64.6311,75.31,57.0,100.0,8.9,KZ,1627093984
rawah,34.4816,41.9093,85.39,39.0,0.0,9.37,IQ,1627093985
elk city,35.412,-99.4043,84.18,61.0,1.0,6.91,US,1627093873
yar-sale,66.8333,70.8333,56.5,71.0,7.0,8.08,RU,1627093985
coquimbo,-29.9533,-71.3436,53.33,82.0,90.0,2.3,CL,1627093985
farafangana,-22.8167,47.8333,66.09,87.0,95.0,12.35,MG,1627093986
kodiak,57.79,-152.4072,54.91,88.0,90.0,9.22,US,1627093984
sakaraha,-22.9,44.5333,56.61,73.0,49.0,10.92,MG,1627093986
barre,44.197,-72.5021,63.01,43.0,26.0,0.98,US,1627093831
broome,42.2506,-75.833,63.81,90.0,0.0,0.16,US,1627093987
neiafu,-18.65,-173.9833,81.28,83.0,75.0,10.36,TO,1627093988
agbor,6.2518,6.1934,69.6,96.0,100.0,3.38,NG,1627093988
mehamn,71.0357,27.8492,44.58,90.0,100.0,32.84,NO,1627093414
vila franca do campo,37.7167,-25.4333,70.21,94.0,94.0,6.29,PT,1627093989
araouane,18.9048,-3.5265,88.41,39.0,53.0,10.02,ML,1627093989
kolokani,13.5728,-8.0339,75.04,82.0,34.0,6.29,ML,1627093989
flin flon,54.7682,-101.865,62.04,68.0,67.0,13.15,CA,1627093990
hambantota,6.1241,81.1185,80.94,89.0,75.0,12.66,LK,1627093990
iberia,29.9502,-91.7507,84.18,89.0,20.0,9.22,US,1627093990
pimentel,-6.8367,-79.9342,64.99,84.0,79.0,3.0,PE,1627093990
micheweni,-4.9667,39.8333,75.4,76.0,7.0,16.35,TZ,1627093991
turayf,31.6725,38.6637,71.85,78.0,0.0,13.8,SA,1627093992
gizo,-8.103,156.8419,84.02,68.0,88.0,2.28,SB,1627093879
oeiras,-7.0253,-42.1311,73.24,55.0,0.0,9.73,BR,1627093993
buraydah,26.326,43.975,90.05,18.0,6.0,5.61,SA,1627093993
saint-philippe,-21.3585,55.7679,65.79,71.0,35.0,5.48,RE,1627093953
sarangani,5.4033,125.4636,84.45,73.0,87.0,8.77,PH,1627093993
tyup,42.7276,78.3648,75.34,31.0,0.0,3.65,KG,1627093994
batemans bay,-35.7167,150.1833,60.91,53.0,92.0,11.72,AU,1627093435
sept-iles,50.2001,-66.3821,62.06,86.0,75.0,4.61,CA,1627093994
cabo san lucas,22.8909,-109.9124,93.61,70.0,0.0,7.0,MX,1627093760
guamuchil,25.4667,-108.1,90.75,61.0,0.0,5.01,MX,1627093995
havre-saint-pierre,50.2334,-63.5986,57.56,94.0,90.0,3.44,CA,1627093995
kavaratti,10.5669,72.642,81.64,83.0,100.0,20.04,IN,1627093995
magdagachi,53.45,125.8,79.48,58.0,78.0,6.62,RU,1627093996
edd,13.9297,41.6925,86.5,63.0,100.0,5.41,ER,1627093996
yarim,14.298,44.3779,58.33,72.0,100.0,6.2,YE,1627093996
alofi,-19.0595,-169.9187,80.49,83.0,16.0,10.36,NU,1627093997
lagoa,39.05,-27.9833,69.98,95.0,94.0,12.08,PT,1627093997
wenling,28.3669,121.36,75.85,93.0,100.0,26.6,CN,1627093930
mutoko,-17.397,32.2268,43.93,89.0,21.0,3.33,ZW,1627093998
druzhba,52.0428,33.9453,60.64,81.0,82.0,5.64,UA,1627093998
san policarpo,12.1791,125.5072,85.89,64.0,98.0,10.04,PH,1627093999
labis,2.385,103.021,86.58,65.0,100.0,8.3,MY,1627093999
knysna,-34.0363,23.0471,41.38,78.0,0.0,6.67,ZA,1627093999
te anau,-45.4167,167.7167,51.37,73.0,44.0,2.28,NZ,1627094000
sant feliu de guixols,41.7833,3.0333,77.9,55.0,30.0,7.7,ES,1627094000
boulder city,35.9786,-114.8325,99.82,30.0,1.0,16.11,US,1627094000
broken hill,-31.95,141.4333,55.11,50.0,9.0,23.02,AU,1627093926
noyabrsk,63.1994,75.4507,58.77,76.0,85.0,7.47,RU,1627094001
touros,-5.1989,-35.4608,74.3,83.0,20.0,15.48,BR,1627093928
gualaca,8.5333,-82.3,81.72,86.0,100.0,0.94,PA,1627094001
korla,41.7597,86.1469,91.24,25.0,0.0,3.89,CN,1627094002
tigil,57.8,158.6667,62.78,78.0,100.0,6.55,RU,1627094002
caravelas,-17.7125,-39.2481,69.66,73.0,47.0,7.16,BR,1627094002
puerto cabezas,14.0351,-83.3888,78.51,86.0,65.0,11.48,NI,1627094003
aksu,41.1231,80.2644,85.14,37.0,1.0,5.68,CN,1627094003
umm lajj,25.0213,37.2685,83.98,52.0,0.0,3.11,SA,1627093829
altay,47.8667,88.1167,80.38,41.0,43.0,5.28,CN,1627094003
nanortalik,60.1432,-45.2371,41.97,90.0,74.0,10.87,GL,1627094004
camalu,30.85,-116.0667,70.43,78.0,92.0,6.35,MX,1627094004
lazaro cardenas,17.9583,-102.2,81.36,83.0,97.0,1.48,MX,1627093803
riachao das neves,-11.7461,-44.91,67.15,53.0,52.0,2.08,BR,1627094005
olafsvik,64.8945,-23.7142,52.5,98.0,100.0,10.36,IS,1627094005
mocuba,-16.8392,36.9856,63.43,72.0,91.0,6.58,MZ,1627094005
ilulissat,69.2167,-51.1,44.62,76.0,75.0,6.91,GL,1627094006
stykkisholmur,65.0757,-22.7297,53.62,96.0,100.0,9.4,IS,1627094006
port hardy,50.6996,-127.4199,60.98,94.0,90.0,0.0,CA,1627094006
luau,-10.7073,22.2247,57.63,52.0,41.0,2.46,AO,1627094008
skibbereen,51.55,-9.2667,64.2,91.0,45.0,6.93,IE,1627094008
mabaruma,8.2,-59.7833,73.92,96.0,100.0,2.57,GY,1627094008
ust-nera,64.5667,143.2,69.69,59.0,100.0,2.98,RU,1627093935
bonthe,7.5264,-12.505,74.97,93.0,100.0,10.74,SL,1627093979
grindavik,63.8424,-22.4338,55.9,100.0,90.0,18.41,IS,1627094009
kapoeta,4.7717,33.5903,72.77,83.0,93.0,3.27,SS,1627094009
roald,62.5833,6.1333,57.16,100.0,44.0,8.05,NO,1627094010
namibe,-15.1961,12.1522,64.15,83.0,0.0,3.74,AO,1627094010
maua,-23.6678,-46.4614,63.1,90.0,0.0,3.53,BR,1627094010
ouadda,8.0777,22.4007,65.34,94.0,43.0,3.58,CF,1627094010
emerald,-23.5333,148.1667,74.34,28.0,0.0,13.8,AU,1627094011
husavik,66.0449,-17.3389,58.91,80.0,82.0,8.75,IS,1627093962
san quintin,30.4833,-115.95,69.51,83.0,83.0,9.33,MX,1627094011
verkhoturye,58.8627,60.8054,61.9,61.0,100.0,4.76,RU,1627094012
komsomolskiy,40.4272,71.7189,83.12,34.0,0.0,0.0,UZ,1627094012
kalevala,65.2,31.1667,48.9,68.0,99.0,8.32,RU,1627094012
tadine,-21.55,167.8833,75.43,78.0,44.0,5.39,NC,1627094006
kavieng,-2.5744,150.7967,84.96,72.0,100.0,14.36,PG,1627093969
taltal,-25.4,-70.4833,57.31,78.0,99.0,4.59,CL,1627094013
saint george,37.1041,-113.5841,88.95,37.0,90.0,17.0,US,1627093862
jiaojiang,28.6803,121.4428,75.67,95.0,100.0,21.07,CN,1627094013
astana,51.1801,71.446,67.95,60.0,0.0,6.71,KZ,1627094014
fort-shevchenko,44.5086,50.263,78.42,67.0,88.0,13.53,KZ,1627094014
cockburn town,21.4612,-71.1419,81.75,83.0,12.0,19.66,TC,1627093786
acajutla,13.5928,-89.8275,81.7,68.0,48.0,9.93,SV,1627094014
riyadh,24.6877,46.7219,86.14,22.0,31.0,3.83,SA,1627093911
malatya,38.5,38.0,66.25,43.0,0.0,9.22,TR,1627094015
rio grande,-32.035,-52.0986,59.65,88.0,0.0,6.98,BR,1627094010
gao,16.6362,1.637,82.09,59.0,99.0,13.0,ML,1627093997
rosarito,32.3333,-117.0333,77.09,80.0,43.0,4.76,MX,1627094015
nabire,-3.3667,135.4833,78.76,81.0,100.0,1.21,ID,1627093958
marienburg,54.0359,19.0266,59.88,95.0,6.0,1.07,PL,1627094016
tabou,4.423,-7.3528,74.75,75.0,100.0,6.62,CI,1627094016
alexandria,31.2156,29.9553,76.96,69.0,0.0,11.5,EG,1627093812
moose jaw,50.4001,-105.5344,72.28,35.0,3.0,6.91,CA,1627093973
zavyalovo,54.5053,82.4484,67.24,79.0,100.0,4.21,RU,1627094017
campo largo,-25.4586,-49.5283,53.06,84.0,0.0,1.9,BR,1627094017
isangel,-19.55,169.2667,86.11,66.0,75.0,0.0,VU,1627094018
requena,39.4883,-1.1004,69.13,30.0,0.0,5.53,ES,1627094018
viedma,-40.8135,-62.9967,43.34,69.0,90.0,1.79,AR,1627094018
san patricio,28.017,-97.5169,84.29,77.0,0.0,13.22,US,1627094019
santa rosa,14.3122,121.1114,79.92,78.0,100.0,19.77,PH,1627094019
padang,-0.9492,100.3543,82.45,65.0,99.0,2.66,ID,1627093851
codrington,-38.2667,141.9667,52.61,71.0,36.0,16.53,AU,1627094019
nanchong,30.7951,106.0847,87.69,65.0,42.0,5.55,CN,1627094020
nanakuli,21.3906,-158.1547,84.15,69.0,40.0,13.8,US,1627093965
meulaboh,4.1363,96.1285,82.69,71.0,94.0,2.89,ID,1627094021
ust-maya,60.4167,134.5333,68.43,84.0,100.0,7.52,RU,1627094022
umarkhed,19.6,77.7,77.58,83.0,98.0,12.15,IN,1627094022
princeton,25.5384,-80.4089,82.0,89.0,1.0,0.0,US,1627094022
millinocket,45.6573,-68.7098,60.91,82.0,75.0,0.0,US,1627094023
west bay,19.3667,-81.4167,84.27,81.0,20.0,3.44,KY,1627094023
pedernales,18.0384,-71.744,81.72,70.0,3.0,6.24,DO,1627094023
candolim,15.5181,73.7626,78.8,94.0,75.0,11.5,IN,1627094024
mezen,65.8522,44.24,44.96,82.0,100.0,9.91,RU,1627094024
aksarka,66.5606,67.7975,57.15,68.0,36.0,9.42,RU,1627094024
diban,35.0365,40.5167,84.52,43.0,0.0,10.78,SY,1627094025
srivardhan,18.0333,73.0167,81.54,84.0,92.0,10.07,IN,1627094025
axim,4.8699,-2.2405,75.31,78.0,93.0,9.19,GH,1627094026
batsfjord,70.6345,29.7185,44.73,88.0,100.0,35.39,NO,1627094026
turukhansk,65.8167,87.9833,76.68,55.0,39.0,21.56,RU,1627094027
necochea,-38.5473,-58.7368,48.04,73.0,100.0,11.41,AR,1627093806
la ronge,55.1001,-105.2842,64.65,59.0,40.0,8.05,CA,1627094027
jingdezhen,29.2947,117.2079,88.21,59.0,39.0,7.72,CN,1627093829
tacuati,-23.45,-56.5833,68.61,49.0,0.0,4.9,PY,1627094028
monterey,36.2505,-121.2516,62.26,47.0,11.0,7.38,US,1627094028
blantyre,-15.785,35.0085,52.9,83.0,95.0,11.36,MW,1627093824
maniitsoq,65.4167,-52.9,41.4,98.0,100.0,15.64,GL,1627094029
torbat-e jam,35.244,60.6225,87.55,13.0,0.0,9.57,IR,1627094029
honiara,-9.4333,159.95,83.68,81.0,31.0,4.61,SB,1627094029
dukat,62.55,155.55,50.34,88.0,100.0,1.79,RU,1627094030
ayotzintepec,17.6667,-96.1333,72.66,97.0,7.0,3.47,MX,1627094030
gold coast,-28.0,153.4333,73.2,57.0,40.0,8.01,AU,1627094030
faya,18.3851,42.4509,61.32,63.0,100.0,3.8,SA,1627094030
ponazyrevo,58.3578,46.3142,49.86,96.0,81.0,7.38,RU,1627094031
asau,46.4333,26.4,62.76,75.0,98.0,2.19,RO,1627094031
houlton,46.1262,-67.8403,57.61,81.0,1.0,0.0,US,1627094031
khandbari,27.3747,87.2039,80.6,80.0,13.0,3.33,NP,1627094032
bijar,35.8668,47.6051,70.61,41.0,0.0,3.58,IR,1627094032
lima,-12.0432,-77.0282,59.25,88.0,90.0,10.36,PE,1627094032
arcachon,44.5875,-1.0519,64.72,88.0,0.0,4.61,FR,1627094033
port-gentil,-0.7193,8.7815,74.46,80.0,100.0,10.65,GA,1627094033
ayacucho,-13.1583,-74.2239,51.69,61.0,1.0,2.44,PE,1627094033
avera,33.194,-82.5271,81.72,67.0,10.0,4.09,US,1627094034
curumani,9.1999,-73.5427,76.1,96.0,100.0,1.28,CO,1627094034
mackay,-21.15,149.2,82.38,51.0,8.0,9.22,AU,1627094034
cape coast,5.1053,-1.2466,74.7,81.0,68.0,9.44,GH,1627094035
boyolangu,-8.1181,111.8935,81.73,60.0,21.0,9.62,ID,1627094035
ugoofaaru,5.6667,73.0,82.56,75.0,100.0,11.23,MV,1627093826
camopi,3.1655,-52.3158,71.37,99.0,49.0,1.28,GF,1627094037
pietroasa,46.5833,22.55,60.31,65.0,81.0,3.27,RO,1627094037
tokur,53.1333,132.9,80.92,47.0,35.0,12.84,RU,1627094037
mazatlan,23.2167,-106.4167,86.02,68.0,40.0,1.99,MX,1627094037
okha,53.5739,142.9478,66.38,84.0,77.0,12.35,RU,1627094038
kismayo,-0.3582,42.5454,76.19,78.0,65.0,20.24,SO,1627093946
provideniya,64.3833,-173.3,54.63,73.0,100.0,7.45,RU,1627094038
bosaso,11.2842,49.1816,90.3,39.0,97.0,23.26,SO,1627094039
creel,27.75,-107.6333,55.17,85.0,100.0,3.71,MX,1627094039
middelburg,-25.7751,29.4648,31.1,67.0,0.0,7.94,ZA,1627094039
great falls,47.5002,-111.3008,83.59,15.0,1.0,7.0,US,1627094040
havelock,34.8791,-76.9013,78.75,80.0,0.0,5.93,US,1627094040
garoua,9.3,13.4,72.48,93.0,91.0,3.83,CM,1627093790
panaba,21.2833,-88.2667,79.5,84.0,90.0,9.55,MX,1627094041
uniontown,39.9001,-79.7164,71.94,77.0,23.0,3.27,US,1627094041
shagonar,51.5333,92.8,71.42,72.0,100.0,1.59,RU,1627094041
buala,-8.145,159.5921,83.52,75.0,77.0,4.27,SB,1627094042
ulladulla,-35.35,150.4667,61.88,56.0,65.0,15.57,AU,1627094042
cardston,49.2,-113.3019,76.46,22.0,0.0,5.75,CA,1627094043
smoky lake,54.1169,-112.4686,72.48,40.0,4.0,9.22,CA,1627093846
qitaihe,45.8,130.85,97.34,32.0,100.0,1.92,CN,1627094037
denpasar,-8.65,115.2167,82.06,74.0,40.0,8.05,ID,1627093978
roswell,34.0232,-84.3616,78.67,91.0,1.0,0.0,US,1627094043
nelson bay,-32.7167,152.15,64.99,60.0,20.0,5.01,AU,1627094044
souillac,-20.5167,57.5167,67.35,94.0,75.0,5.75,MU,1627094044
nicoya,10.1483,-85.452,72.95,87.0,100.0,6.31,CR,1627094045
nakonde,-9.3421,32.745,52.88,85.0,72.0,8.66,ZM,1627094045
southbridge,42.0751,-72.0334,65.28,91.0,50.0,3.31,US,1627094045
saint john,45.2727,-66.0677,59.18,99.0,40.0,2.3,CA,1627093917
ulagan,50.6321,87.9563,67.39,75.0,99.0,1.79,RU,1627094046
moree,-29.4667,149.85,53.62,76.0,90.0,10.36,AU,1627094046
olanchito,15.5,-86.5667,78.64,98.0,44.0,1.19,HN,1627094047
kostomuksha,64.571,30.5767,45.99,74.0,82.0,6.55,RU,1627094047
sao gabriel da cachoeira,-0.1303,-67.0892,71.85,98.0,100.0,0.6,BR,1627093993
seddon,-37.8068,144.8916,54.72,67.0,75.0,17.27,AU,1627093913
puerto del rosario,28.5004,-13.8627,74.95,60.0,93.0,16.11,ES,1627094047
northam,51.0333,-4.2167,63.66,93.0,100.0,18.23,GB,1627094048
algiers,36.7525,3.042,71.42,78.0,0.0,1.14,DZ,1627094048
kasongo-lunda,-6.4667,16.8167,63.23,40.0,23.0,0.98,CD,1627094049
kuusamo,65.9667,29.1833,44.64,87.0,75.0,6.91,FI,1627093833
fort portal,0.6617,30.2748,64.69,62.0,76.0,1.39,UG,1627094049
jining,35.405,116.5814,88.07,53.0,53.0,6.44,CN,1627093862
ilebo,-4.3167,20.5833,66.88,40.0,16.0,1.03,CD,1627093865
hohhot,40.8106,111.6522,77.29,65.0,40.0,6.71,CN,1627094051
havoysund,70.9963,24.6622,45.48,93.0,100.0,26.89,NO,1627094051
leh,34.1667,77.5833,66.07,46.0,13.0,3.33,IN,1627094051
namatanai,-3.6667,152.4333,84.61,70.0,60.0,8.21,PG,1627094051
salinas,36.6777,-121.6555,78.66,76.0,75.0,11.5,US,1627093895
henties bay,-22.116,14.2845,67.86,19.0,3.0,19.42,NA,1627094052
paoua,7.2427,16.4406,66.92,96.0,87.0,3.11,CF,1627094052
fare,-16.7,-151.0167,77.72,67.0,9.0,11.72,PF,1627093994
zaqatala,41.6336,46.6433,68.47,83.0,75.0,6.91,AZ,1627094053
yeppoon,-23.1333,150.7333,78.58,37.0,0.0,8.81,AU,1627094053
emba,48.8264,58.1442,77.34,54.0,76.0,9.24,KZ,1627094053
vung tau,10.346,107.0843,85.5,69.0,67.0,16.93,VN,1627093940
pandi,14.8872,120.8572,79.92,83.0,100.0,16.62,PH,1627094054
maarianhamina,60.0973,19.9348,42.66,93.0,0.0,1.14,AX,1627094054
asfi,32.2994,-9.2372,68.77,82.0,2.0,20.02,MA,1627094055
ilo,-17.6394,-71.3375,58.98,86.0,82.0,4.32,PE,1627094055
hirado,33.3597,129.5531,92.39,68.0,100.0,8.28,JP,1627094055
vestmannaeyjar,63.4427,-20.2734,53.31,99.0,100.0,14.38,IS,1627094056
antonina,-25.4286,-48.7119,64.15,98.0,8.0,1.9,BR,1627094056
qaqortoq,60.7167,-46.0333,46.9,85.0,49.0,2.3,GL,1627094056
bingen,48.1113,9.2724,65.1,94.0,70.0,2.08,DE,1627094057
sioux lookout,50.1001,-91.917,77.38,94.0,40.0,8.05,CA,1627094048
gazojak,41.1875,61.4036,90.59,11.0,0.0,4.92,TM,1627094057
moron,-34.6534,-58.6198,62.98,79.0,100.0,4.59,AR,1627093929
lasa,46.6166,10.7002,65.28,76.0,98.0,2.75,IT,1627093921
thabazimbi,-24.5917,27.4116,40.96,48.0,0.0,3.85,ZA,1627094058
iracoubo,5.4802,-53.2011,77.29,89.0,59.0,11.05,GF,1627094058
krasnoselkup,65.7,82.4667,63.39,67.0,97.0,15.39,RU,1627094058
yumen,40.2833,97.2,83.03,33.0,94.0,8.25,CN,1627094059
krasnyy kut,50.95,46.9667,65.98,54.0,0.0,5.84,RU,1627094059
ballina,-28.8667,153.5667,71.78,46.0,0.0,17.27,AU,1627094060
port hawkesbury,45.6169,-61.3485,60.58,94.0,75.0,1.01,CA,1627094060
maceio,-9.6658,-35.7353,71.04,88.0,75.0,0.0,BR,1627094060
oksfjord,70.2396,22.3479,50.07,96.0,100.0,9.6,NO,1627094060
savonlinna,61.8699,28.88,49.24,93.0,0.0,3.44,FI,1627094061
taoudenni,22.6783,-3.9836,95.25,25.0,18.0,6.13,ML,1627094061
jizan,17.3333,42.6667,83.34,76.0,100.0,4.09,SA,1627094061
san cristobal,7.7669,-72.225,66.33,98.0,84.0,3.8,VE,1627093934
gongzhuling,43.5008,124.8198,87.3,51.0,14.0,13.71,CN,1627093865
maloy,61.9353,5.1136,58.73,92.0,35.0,6.31,NO,1627094062
moerai,-22.4333,-151.3333,72.34,63.0,88.0,10.58,PF,1627093977
taunggyi,20.7833,97.0333,71.83,76.0,89.0,5.3,MM,1627094037
pampierstad,-27.7832,24.6877,28.47,45.0,0.0,3.91,ZA,1627093946
saint-joseph,-21.3667,55.6167,64.78,67.0,18.0,7.07,RE,1627094063
gravdal,68.1214,13.5031,52.02,97.0,100.0,14.54,NO,1627094063
nambucca heads,-30.65,153.0,71.17,47.0,5.0,11.77,AU,1627094064
ostrovnoy,68.0531,39.5131,43.21,95.0,100.0,25.32,RU,1627093933
puerto penasco,31.3167,-113.5333,87.91,71.0,91.0,18.99,MX,1627093839
yueyang,29.3333,113.0919,87.85,62.0,99.0,13.42,CN,1627094065
tanout,14.9709,8.8879,78.1,69.0,30.0,16.67,NE,1627094065
warrnambool,-38.3833,142.4833,51.82,70.0,37.0,18.72,AU,1627094064
chambar,25.2931,68.812,85.28,70.0,100.0,13.69,PK,1627094066
mayo,38.8876,-76.5119,75.13,79.0,1.0,0.0,US,1627094066
indore,22.7179,75.8333,79.59,76.0,24.0,12.26,IN,1627094066
santa cruz de las flores,20.4833,-103.5,69.96,90.0,49.0,0.78,MX,1627094067
praya,14.9215,-23.5087,75.74,69.0,75.0,9.22,CV,1627094027
sao geraldo do araguaia,-6.4006,-48.555,74.34,44.0,7.0,3.38,BR,1627094067
pangnirtung,66.1451,-65.7125,43.21,78.0,18.0,1.68,CA,1627094067
ixtapa,20.7,-105.2,87.03,74.0,75.0,0.0,MX,1627093826
chingirlau,51.095,54.0814,66.31,67.0,84.0,4.76,KZ,1627094068
ambon,-3.6954,128.1814,77.14,94.0,75.0,0.0,ID,1627093980
parvatipuram,18.7833,83.4333,81.36,78.0,100.0,2.91,IN,1627094068
ongandjera,-17.8833,15.0667,48.02,16.0,0.0,9.86,NA,1627094069
port moresby,-9.4431,147.1797,81.82,78.0,75.0,11.5,PG,1627094069
takayama,36.1333,137.25,87.03,53.0,28.0,1.1,JP,1627094069
tessalit,20.1986,1.0114,90.12,29.0,91.0,7.36,ML,1627094070
celestun,20.8667,-90.4,81.46,79.0,99.0,13.62,MX,1627094070
yaguajay,22.3272,-79.2378,78.13,88.0,49.0,7.61,CU,1627094070
akyab,20.15,92.9,84.22,82.0,99.0,13.35,MM,1627094070
camacha,33.0833,-16.3333,68.76,78.0,40.0,13.8,PT,1627093795
junin,-34.5838,-60.9433,59.45,73.0,99.0,7.47,AR,1627093807
potosi,-19.5836,-65.7531,42.87,40.0,3.0,0.81,BO,1627094071
tazovskiy,67.4667,78.7,50.92,80.0,100.0,21.05,RU,1627094071
indiana,40.0003,-86.2503,77.07,88.0,40.0,4.61,US,1627094072
kiama,-34.6833,150.8667,62.26,55.0,67.0,15.99,AU,1627094072
partyzany,46.3314,34.7503,63.93,62.0,0.0,7.29,UA,1627094072
de-kastri,51.4667,140.7833,80.13,69.0,100.0,5.64,RU,1627094073
nishihara,26.1842,127.7558,82.06,94.0,90.0,35.68,JP,1627094002
parrita,9.5201,-84.3225,80.98,95.0,100.0,3.65,CR,1627094073
teya,60.3778,92.6267,79.59,38.0,3.0,3.76,RU,1627094074
basco,20.4487,121.9702,84.33,80.0,98.0,28.9,PH,1627094074
naryan-mar,67.6713,53.087,46.87,65.0,100.0,5.41,RU,1627093987
bemidji,47.4736,-94.8803,74.97,90.0,1.0,0.0,US,1627094074
bucak,37.4592,30.595,71.64,53.0,0.0,6.33,TR,1627094075
gat,31.61,34.7642,77.68,100.0,61.0,9.62,IL,1627094075
montepuez,-13.1256,38.9997,62.33,78.0,79.0,12.82,MZ,1627094064
hobyo,5.3505,48.5268,76.77,80.0,18.0,25.97,SO,1627093982
suleja,9.1758,7.1808,69.15,99.0,100.0,2.1,NG,1627094076
queenstown,-31.8976,26.8753,24.87,95.0,9.0,1.32,ZA,1627094076
yining,29.0361,114.5636,88.3,57.0,58.0,7.83,CN,1627094076
kemijarvi,66.7131,27.4306,45.18,82.0,64.0,5.59,FI,1627094077
gazli,40.1333,63.45,92.8,11.0,0.0,7.67,UZ,1627094077
halifax,44.6453,-63.5724,62.65,92.0,14.0,2.3,CA,1627094037
general roca,-39.0333,-67.5833,46.8,45.0,98.0,8.39,AR,1627094079
spearfish,44.4908,-103.8594,82.62,39.0,1.0,1.01,US,1627094049
bilma,18.6853,12.9164,86.95,47.0,9.0,13.2,NE,1627093876
oussouye,12.485,-16.5469,77.18,78.0,99.0,4.54,SN,1627094079
burhanpur,21.3,76.2333,81.14,79.0,81.0,7.54,IN,1627094079
miri,4.4148,114.0089,86.14,62.0,40.0,10.36,MY,1627094080
cassilandia,-19.1133,-51.7342,65.39,46.0,0.0,3.36,BR,1627094080
sinnamary,5.3833,-52.95,77.97,87.0,65.0,12.84,GF,1627094080
kochevo,59.5994,54.3125,54.19,96.0,100.0,7.09,RU,1627094081
terrytown,29.9102,-90.0326,89.6,69.0,40.0,4.0,US,1627094081
inuvik,68.3499,-133.7218,67.06,56.0,75.0,8.05,CA,1627094082
george town,5.4112,100.3354,88.9,77.0,20.0,3.0,MY,1627094011
amahai,-3.3333,128.9167,77.54,89.0,100.0,8.61,ID,1627094082
dankov,53.2515,39.1555,56.34,73.0,41.0,4.85,RU,1627094082
libertador general san martin,-23.8064,-64.7876,63.93,48.0,0.0,3.53,AR,1627094083
fairbanks,64.8378,-147.7164,76.1,71.0,90.0,10.36,US,1627094083
katobu,-4.9408,122.5276,84.94,56.0,36.0,6.69,ID,1627094083
majene,-3.5403,118.9707,83.46,69.0,97.0,13.4,ID,1627094084
walvis bay,-22.9575,14.5053,68.09,7.0,2.0,17.27,NA,1627094084
oktyabrskiy,54.4815,53.471,66.47,54.0,63.0,3.27,RU,1627094085
lampazos de naranjo,27.0167,-100.5167,89.24,34.0,2.0,10.6,MX,1627094085
villa guerrero,18.8667,-99.65,70.18,71.0,27.0,4.32,MX,1627094085
beaverlodge,55.2166,-119.4361,65.55,48.0,8.0,16.67,CA,1627094086
lulea,65.5842,22.1547,46.47,81.0,12.0,1.14,SE,1627094086
atambua,-9.1061,124.8925,84.85,33.0,78.0,2.04,ID,1627094086
tevriz,57.509,72.4042,71.62,72.0,63.0,7.54,RU,1627093857
bellevue,47.6104,-122.2007,80.08,51.0,1.0,3.0,US,1627093623
belz,47.6751,-3.168,66.09,91.0,57.0,1.01,FR,1627094087
constitucion,-35.3333,-72.4167,51.71,83.0,91.0,5.28,CL,1627093856
angoche,-16.2325,39.9086,72.23,61.0,98.0,19.28,MZ,1627094080
sozimskiy,59.7418,52.2482,50.67,97.0,100.0,7.4,RU,1627094087
sistranda,63.7256,8.834,52.9,86.0,100.0,9.6,NO,1627093909
mantua,45.1667,10.7833,76.24,80.0,100.0,1.99,IT,1627093793
bowen,-20.0167,148.2333,84.42,58.0,6.0,10.2,AU,1627094088
praia da vitoria,38.7333,-27.0667,71.85,94.0,75.0,11.01,PT,1627094088
itanhem,-17.1664,-40.33,60.87,94.0,95.0,1.88,BR,1627094089
phanat nikhom,13.4458,101.1844,88.86,87.0,100.0,10.29,TH,1627094089
laguna de perlas,12.3429,-83.6712,78.4,88.0,100.0,13.2,NI,1627094089
tura,25.5198,90.2201,76.84,90.0,88.0,8.84,IN,1627094090
comodoro rivadavia,-45.8667,-67.5,46.26,49.0,0.0,16.11,AR,1627094090
zapolyarnyy,69.4154,30.8136,45.68,81.0,100.0,28.66,RU,1627094090
ulaangom,49.9811,92.0667,77.54,47.0,26.0,3.65,MN,1627094091
